ID,Title,Date,OtherImagesUrl,Latitude,Longitude,Address,Email,PhoneNumber,Website,Subsections
79196691,Bahnhof Milde,2024-03-28T21:32:00+01:00,https://cmsphoto.ww-cdn.com/superstatic/3749680/art/grande/79196691-57393038.jpg?v=1711657898,52.7516375,11.4846719,QF2M+MV3 Kalbe (Milde) Altmarkkreis Salzwedel,,,,[object Object]
79196902,Bahnhof Salzwedel,2024-03-28T21:46:00+01:00,https://cmsphoto.ww-cdn.com/superstatic/3749680/art/grande/79196902-57393122.jpg?v=1711658753,52.8573125,11.1655156,V548+W6C Salzwedel Altmarkkreis Salzwedel,,,,[object Object]
79227392,Ehemaliges Transrapid-Infozentrum Dörpen,2024-03-30T17:57:00+01:00,https://cmsphoto.ww-cdn.com/superstatic/3749680/art/grande/79227392-57406242.jpg?v=1711817840,52.9546875,7.3731875,X93F+V7 Dörpen Emsland,,,,[object Object]
79234702,Alte DB Halle,2024-03-31T07:13:00+02:00,https://cmsphoto.ww-cdn.com/superstatic/3749680/art/grande/79234702-57409519.jpg?v=1711861780,53.6362375,7.6082656,JJP5+F8R Esens WTM,,,,[object Object]
79234764,Zug mit Wagen,2024-03-31T07:41:00+02:00,https://cmsphoto.ww-cdn.com/superstatic/3749680/art/grande/79234764-57409553.jpg?v=1711863550,53.4835875,8.0332031,F2MM+C7P Sande Friesland,,,,[object Object]
79318161,Verlassener Zug,2024-04-04T18:21:00+02:00,https://cmsphoto.ww-cdn.com/superstatic/3749680/art/grande/79318161-57464922.jpg?v=1712247508,54.2865375,10.1227031,74PF+J38 KI Kiel,,,https://de.m.wikipedia.org/wiki/MaK_GDT,[object Object]
79320703,altes Bahngebäude,2024-04-04T20:38:00+02:00,https://cmsphoto.ww-cdn.com/superstatic/3749680/art/grande/79320703-57466198.jpg?v=1712255885,54.4952125,11.2220156,F6WC+3RJ Fehmarn Ostholstein,,,,[object Object]
79327522,Ringlockschuppen Eilsleben Börde,2024-04-05T06:03:00+02:00,https://cmsphoto.ww-cdn.com/superstatic/3749680/art/grande/79327522-57469453.jpg?v=1712289800,52.1472625,11.2407031,46WR+W74 ,,,,[object Object]
79338919,Stellwerk,2024-04-05T18:50:00+02:00,https://cmsphoto.ww-cdn.com/superstatic/3749680/art/grande/79338919-57478167.jpg?v=1712335834,54.1663625,10.4330781,5C8M+G6W Plön Kreis Plön,,,,[object Object]
79506636,Waggons  9F5GG2V9,2024-04-14T15:46:00+02:00,https://cmsphoto.ww-cdn.com/superstatic/3749680/art/grande/79506636-57567579.jpg?v=1713101738,53.5436875,10.0193125,9F5GG2V9+FP  ,,,,[object Object]
79510856,Abgestellte Straßenbahn FXXF,2024-04-14T20:18:00+02:00,https://cmsphoto.ww-cdn.com/superstatic/3749680/art/grande/79510856-57569401.jpg?v=1713118646,53.4989625,8.9743906,FXXF+HQJ Hipstedt Rotenburg (Wümme),,,,[object Object]
79604080,Bahnhof 6GW8,2024-04-18T09:05:00+02:00,https://cmsphoto.ww-cdn.com/superstatic/3749680/art/grande/79604080-57628822.jpg?v=1713423903,52.2465625,10.5365781,6GWP+JJG BS Kreisfreie Stadt Braunschweig,,,,[object Object]
79638604,Bahnhof 49JV,2024-04-19T16:17:00+02:00,https://cmsphoto.ww-cdn.com/superstatic/3749680/art/grande/79638604-57650561.jpg?v=1713536251,52.5184875,11.4040469,GC93+9JV Gardelegen Altmarkkreis Salzwedel,,,,[object Object]
79641522,Lokschuppen C679,2024-04-19T18:06:00+02:00,https://cmsphoto.ww-cdn.com/superstatic/3749680/art/grande/79641522-57651968.jpg?v=1713542762,53.4141625,11.2199844,C679+MX9 Hagenow Ludwigslust,,,,[object Object]
79641755,Bahngebäude C678,2024-05-20T13:26:00+02:00,https://cmsphoto.ww-cdn.com/superstatic/3749680/art/grande/79641755-58036781.jpg?v=1716204380,53.4135625,11.2154844,C678+C5H Hagenow Ludwigslust,,,https://de.wikipedia.org/wiki/Bahnhof_Hagenow_Land,[object Object]
79641938,Bahngebäude  C68C,2024-04-19T18:19:00+02:00,https://cmsphoto.ww-cdn.com/superstatic/3749680/art/grande/79641938-57652137.jpg?v=1713543575,53.4153125,11.2208906,C68C+49C Hagenow Ludwigslust,,,,[object Object]
79763370,Eisenbahntunnel 5VQ1,2024-04-24T13:49:00+02:00,https://cmsphoto.ww-cdn.com/superstatic/3749680/art/grande/79763370-57707857.jpg?v=1713959303,52.1881875,7.8722031,5VQC+7VG Lengerich ST,,,,[object Object]
79766089,Ehem. Bahnhof 7392,2024-04-24T15:41:00+02:00,https://cmsphoto.ww-cdn.com/superstatic/3749680/art/grande/79766089-57709624.jpg?v=1713966032,52.2694875,8.0620469,7396+QRV Osnabrück Kreisfreie Stadt Osnabrück,,,,[object Object]
79788280,Alte Bahn 8261,2024-04-25T11:43:00+02:00,https://cmsphoto.ww-cdn.com/superstatic/3749680/art/grande/79788280-57723669.jpg?v=1714038226,52.3119625,8.0062969,8264+QGM Osnabrück Kreisfreie Stadt Osnabrück,,,,[object Object]
79805010,Bahngebäude 4CH1,2024-04-25T23:12:00+02:00,https://cmsphoto.ww-cdn.com/superstatic/3749680/art/grande/79805010-57731326.jpg?v=1714079549,53.1287125,7.4238594,4CHF+FGQ Westoverledingen Leer (Ostfriesland),,,,[object Object]
79813213,Bahnhaus MRM1,2024-04-26T10:22:00+02:00,https://cmsphoto.ww-cdn.com/superstatic/3749680/art/grande/79813213-57735340.jpg?v=1714119752,52.6844375,8.8133281,MRM7+Q8G Sulingen DH,,,,[object Object]
79814774,Lokschuppen XGJ1,2024-04-26T11:52:00+02:00,https://cmsphoto.ww-cdn.com/superstatic/3749680/art/grande/79814774-57736233.jpg?v=1714125119,51.9820375,9.5281094,XGJH+R69 Bodenwerder HOL,,,,[object Object]
79815256,Lok XJ31,2024-04-26T12:10:00+02:00,https://cmsphoto.ww-cdn.com/superstatic/3749680/art/grande/79815256-57736436.jpg?v=1714126213,51.9539375,9.6007344,XJ32+H7H Dielmissen HOL,,,,[object Object]
79821423,kleines Bahngebäude RW3P,2024-04-26T16:54:00+02:00,https://cmsphoto.ww-cdn.com/superstatic/3749680/art/grande/79821423-57740018.jpg?v=1714143222,53.8047125,11.9352656,RW3P+V4J Tarnow Rostock,,,,[object Object]
79821508,Ringlokschuppen RXPX,2024-04-26T16:57:00+02:00,https://cmsphoto.ww-cdn.com/superstatic/3749680/art/grande/79821508-57740074.jpg?v=1714143466,53.8361625,11.9985156,RXPX+FC6 Bützow Rostock,,,,[object Object]
79822227,Alter Bahnhof  FCPG,2024-04-26T17:24:00+02:00,https://cmsphoto.ww-cdn.com/superstatic/3749680/art/grande/79822227-57740308.jpg?v=1714145038,53.4853375,12.4271406,FCPG+4VJ Malchow Müritz,,,,[object Object]
79826280,Bahnhof V649,2024-04-26T20:01:00+02:00,https://cmsphoto.ww-cdn.com/superstatic/3749680/art/grande/79826280-57741733.jpg?v=1714154448,52.8552625,11.2193281,V649+4P4 Salzwedel Altmarkkreis Salzwedel,,,,[object Object]
79834006,Restaurantzug 484X,2024-04-27T04:27:00+02:00,https://cmsphoto.ww-cdn.com/superstatic/3749680/art/grande/79834006-57744441.jpg?v=1714184845,54.1065375,13.3499219,484X+JX7 Wackerow Landkreis Vorpommern-Greifswald,,,,[object Object]
79845487,Bahngebäude Teschen 99QF,2024-04-27T18:06:00+02:00,https://cmsphoto.ww-cdn.com/superstatic/3749680/art/grande/79845487-57750262.jpg?v=1714233991,54.3894125,13.3740156,99QF+QJ6 Sehlen Rügen,,,,[object Object]
79856563,Ringlokschuppen H771,2024-04-28T07:19:00+02:00,https://cmsphoto.ww-cdn.com/superstatic/3749680/art/grande/79856563-57754296.jpg?v=1714281537,53.5626125,13.2606719,H776+27V NB Mecklenburgische Seenplatte,,,https://www.nordkurier.de/regional/neubrandenburg/rund-um-lokschuppen-soll-ein-neues-quartier-entstehen-1483691?fbclid=IwZXh0bgNhZW0CMTAAAR2CAC4eQGcpAViK-0NKDFh2TBOwQmdiuqa0OHrWNR8UBDua02oop9qfO-I_aem_ARf0g2l6KhmJ7rXFINWzaG5zjosx_RL4Fz3crpVrRohpLtIyIwTX8N,[object Object]
79857265,Bahnhof 64W1,2024-04-28T08:38:00+02:00,https://cmsphoto.ww-cdn.com/superstatic/3749680/art/grande/79857265-57754641.jpg?v=1714286299,53.2453125,13.1039844,64W3+4HH Godendorf Mecklenburgische Seenplatte,,,,[object Object]
79916721,Eisenbahnfähre Fürstenberg 55M6,2024-04-30T18:34:00+02:00,https://cmsphoto.ww-cdn.com/superstatic/3749680/art/grande/79916721-57787520.jpg?v=1714494884,53.1834375,13.1605469,55M6+96F Fürstenberg/Havel Oberhavel,,,https://de.wikipedia.org/wiki/Eisenbahnf%C3%A4hre_F%C3%BCrstenberg/Havel,[object Object]
80065026,Bahnhof 65GQ,2024-05-06T19:16:00+02:00,https://cmsphoto.ww-cdn.com/superstatic/3749680/art/grande/80065026-57860079.jpg?v=1715015594,52.2269375,12.1887656,65GQ+QGC Möckern JL,,,,[object Object]
80151629,RAW 3MJ6,2024-05-09T20:58:00+02:00,https://cmsphoto.ww-cdn.com/superstatic/3749680/art/grande/80151629-57908222.jpg?v=1715281072,52.0818875,11.6620469,3MJ6+QR3 MD SA,,,,[object Object]
80166069,Bahngebäude QXW3,2024-05-10T13:59:00+02:00,https://cmsphoto.ww-cdn.com/superstatic/3749680/art/grande/80166069-57917020.jpg?v=1715342342,51.7963125,10.9607031,QXW6+G7G Blankenburg (Harz) Harz,,,,[object Object]
80166202,Eisenbahnbrücke 4MG,2024-05-10T14:07:00+02:00,https://cmsphoto.ww-cdn.com/superstatic/3749680/art/grande/80166202-57917128.jpg?v=1715342766,52.1251875,11.6506875,4MG2+37 MD SA,,,https://de.wikipedia.org/wiki/Br%C3%BCcke_%C3%BCber_die_Alte_Elbe,[object Object]
80167693,Verladerampe 78J,2024-05-10T15:07:00+02:00,https://cmsphoto.ww-cdn.com/superstatic/3749680/art/grande/80167693-57917899.jpg?v=1715346445,52.2822875,11.3455469,78JW+W67 Süplingen Börde,,,,[object Object]
80169136,Altes Bahnhofsgelände 44VP,2024-05-10T16:31:00+02:00,https://cmsphoto.ww-cdn.com/superstatic/3749680/art/grande/80169136-57918701.jpg?v=1715351393,52.1428625,11.1366094,44VP+4JX Völpke Börde,,,,[object Object]
80232463,Bahnhofsgebäude V5F2,2024-05-13T15:34:00+02:00,https://cmsphoto.ww-cdn.com/superstatic/3749680/art/grande/80232463-57948854.jpg?v=1715607281,51.8729125,11.1678594,V5F9+549 Wegeleben Harz,,,,[object Object]
80236055,Altes Bahngebäude 2QCJ,2024-05-13T17:15:00+02:00,https://cmsphoto.ww-cdn.com/superstatic/3749680/art/grande/80236055-57950817.jpg?v=1715613351,52.0217875,10.7816094,2QCJ+PJ9 Osterwieck Harz,,,,[object Object]
80236469,Alter Bahnhof VCXW,2024-05-13T17:28:00+02:00,https://cmsphoto.ww-cdn.com/superstatic/3749680/art/grande/80236469-57950979.jpg?v=1715613952,51.8986625,11.4465781,VCXW+FJ8 Hecklingen Salzlandkreis,,,,[object Object]
80395482,Stillgelegter Bahnhof mit Kneipe 22J2,2024-05-20T13:42:00+02:00,https://cmsphoto.ww-cdn.com/superstatic/3749680/art/grande/80395482-58036954.jpg?v=1716205330,52.0309375,10.0016094,22J2+9JH Bad Salzdetfurth HI,,,,[object Object]
80652590,Bahngebäude 5PW2,2024-05-31T09:00:00+02:00,https://cmsphoto.ww-cdn.com/superstatic/3749680/art/grande/80652590-58182424.jpg?v=1717138700,52.1967375,8.7110469,5PW6+MCV Löhne Herford,,,,[object Object]
80953068,Eisenbahnbrücke 9F5FHW6,2024-06-13T18:30:00+02:00,https://cmsphoto.ww-cdn.com/superstatic/3749680/art/grande/80953068-58359853.jpg?v=1718296079,53.5606875,9.9178125,9F5FHW69+74  ,,,,[object Object]
80965447,Ruine alter Bahnhof 65HR,2024-06-14T10:58:00+02:00,https://cmsphoto.ww-cdn.com/superstatic/3749680/art/grande/80965447-58366877.jpg?v=1718355517,53.2864375,11.4745625,7FPF+HR Karstädt Prignitz,,,,[object Object]
81279632,Stellwerk1000,2024-06-30T17:36:00+02:00,https://cmsphoto.ww-cdn.com/superstatic/3749680/art/grande/81279632-58572057.jpg?v=1719761777,52.6694915,10.1205377,1000 Zum Hartsteinwerk Garßen,,,,[object Object]
81435790,Alte Bahngebäude  21,2024-07-08T20:17:00+02:00,https://cmsphoto.ww-cdn.com/superstatic/3749680/art/grande/81435790-58657300.jpg?v=1720462492,53.4671939,12.0259079,21 Molkereistraße Lübz,,,,[object Object]
79368241,Eisenbahner-Erholungsheim GGR,2024-06-17T17:25:00+02:00,https://cmsphoto.ww-cdn.com/superstatic/3749680/art/grande/79368241-57492762.jpg?v=1712501827,51.6413625,9.4587656,JFR5+GGR Bad Karlshafen Kassel,,,,[object Object]
79803437,Bahngebäude 6FV1,2024-04-25T22:10:00+02:00,https://cmsphoto.ww-cdn.com/superstatic/3749680/art/grande/79803437-57730675.jpg?v=1714075735,52.2438125,7.4642031,6FV7+GMG Rheine ST,,,,[object Object]
79803886,Bahnbunker 7C71,2024-04-25T22:23:00+02:00,https://cmsphoto.ww-cdn.com/superstatic/3749680/art/grande/79803886-57730821.jpg?v=1714076609,52.2628875,7.4491094,7C7X+5J5 Rheine ST,,,,[object Object]
80231502,Bahnhallen 8FC3,2024-05-13T14:54:00+02:00,https://cmsphoto.ww-cdn.com/superstatic/3749680/art/grande/80231502-57947978.jpg?v=1715604834,51.3223625,9.4636719,8FC7+WFV Kassel Kassel,,,,[object Object]
80260145,Dampflock RHJ1,2024-05-14T15:05:00+02:00,https://cmsphoto.ww-cdn.com/superstatic/3749680/art/grande/80260145-57965040.jpg?v=1715691719,51.8303625,11.5913594,RHJR+4GX Staßfurt Salzlandkreis,,,,[object Object]
80261214,Ehemaliges Bahnbetriebswerk 2348,2024-05-14T15:43:00+02:00,https://cmsphoto.ww-cdn.com/superstatic/3749680/art/grande/80261214-57965801.jpg?v=1715694184,52.0060125,13.0673281,2348+CW4 Jüterbog Teltow-Fläming,,,,[object Object]
80308039,Güterbahnhof PXQ3,2024-05-16T12:04:00+02:00,https://cmsphoto.ww-cdn.com/superstatic/3749680/art/grande/80308039-57996290.jpg?v=1715853774,51.7386625,11.9926719,PXQV+F37 Köthen (Anhalt) Landkreis Anhalt-Bitterfeld,,,,[object Object]
80319327,Güterbahnhof R6V2,2024-05-16T20:16:00+02:00,https://cmsphoto.ww-cdn.com/superstatic/3749680/art/grande/80319327-58002482.jpg?v=1715883382,51.8443625,12.2394219,R6VQ+PQV Dessau-Roßlau Kreisfreie Stadt Dessau-Roßlau,,,,[object Object]
80331348,Ringlockschuppen F7H3,2024-05-17T11:07:00+02:00,https://cmsphoto.ww-cdn.com/superstatic/3749680/art/grande/80331348-58008646.jpg?v=1715936837,51.4784875,11.2841719,F7HM+9MV Sangerhausen Landkreis Mansfeld-Südharz,,,,[object Object]
80332863,Ringlokschuppen J8Q4,2024-05-17T12:48:00+02:00,https://cmsphoto.ww-cdn.com/superstatic/3749680/art/grande/80332863-58009839.jpg?v=1715942928,51.6380125,12.3066094,J8Q4+6J5 Bitterfeld-Wolfen Landkreis Anhalt-Bitterfeld,,,,[object Object]
80334394,Alte Straßenbahn GXM1,2024-05-17T14:26:00+02:00,https://cmsphoto.ww-cdn.com/superstatic/3749680/art/grande/80334394-58010824.jpg?v=1715948799,52.5331375,12.9819531,GXMJ+7Q4 Wustermark HVL,,,,[object Object]
80334518,Bahnhaus H353,2024-05-17T14:29:00+02:00,https://cmsphoto.ww-cdn.com/superstatic/3749680/art/grande/80334518-58010876.jpg?v=1715948989,52.5594625,13.0911406,H35R+QFJ Falkensee HVL,,,,[object Object]
80334608,Güterbahnhof G4Q3,2024-05-17T14:33:00+02:00,https://cmsphoto.ww-cdn.com/superstatic/3749680/art/grande/80334608-58010912.jpg?v=1715949199,52.5380875,13.1295156,G4QH+6RJ Berlin Kreisfreie Stadt Berlin,,,,[object Object]
80334722,Turm 87M2,2024-05-17T14:45:00+02:00,https://cmsphoto.ww-cdn.com/superstatic/3749680/art/grande/80334722-58011011.jpg?v=1715949900,52.3337625,13.2779844,87MH+G55 Ludwigsfelde Teltow-Fläming,,,,[object Object]
80334858,Hall Of Fame Dreilinden /Stammbahnbrücke Kleinmachnow C531,2024-05-17T14:52:00+02:00,https://cmsphoto.ww-cdn.com/superstatic/3749680/art/grande/80334858-58011120.jpg?v=1715950239,52.4040375,13.1680469,C539+J67 Kleinmachnow Potsdam-Mittelmark,,,,[object Object]
80356353,Bahngebäude 854Q,2024-05-18T14:46:00+02:00,https://cmsphoto.ww-cdn.com/superstatic/3749680/art/grande/80356353-58021206.jpg?v=1716036365,51.3056375,11.1892031,854Q+7M4 An der Schmücke Kyffhäuserkreis,,,,[object Object]
80356553,Ringlokschuppen 9886,2024-05-18T14:55:00+02:00,https://cmsphoto.ww-cdn.com/superstatic/3749680/art/grande/80356553-58021236.jpg?v=1716036938,51.3656125,11.3117031,9886+6MW Artern Kyffhäuserkreis,,,,[object Object]
80389260,ehemalige S-Bahn Station Düppel/Kleinmachnow 587,2024-05-20T05:46:00+02:00,https://cmsphoto.ww-cdn.com/superstatic/3749680/art/grande/80389260-58033421.jpg?v=1716176787,52.4211875,13.2259219,C6CG+F9F Berlin Kreisfreie Stadt Berlin,,,https://www.stillgelegte-s-bahn.de/stammbahn/stammbahn.htm?fbclid=IwZXh0bgNhZW0CMTAAAR0lojKKAIgqHdDWgMc9e9hwsGdvD0L0fJZWCUFvNjcJyJINXDv0NzOWxso_aem_AfuNQ4ubOpMgcphc6OAkKp88wBIg7ajHMDAx0zDW-rSKenruQ4Gv-lD3QV0CKxdnaBjefxZWyRbCFQXalLbTfuT1,[object Object]
80389305,ehemaliger S-Bahn Haltepunkt Zehlendorf-Süd 696,2024-05-20T05:47:00+02:00,https://cmsphoto.ww-cdn.com/superstatic/3749680/art/grande/80389305-58033430.jpg?v=1716176856,52.4251875,13.2392969,C6GQ+3PF Berlin Kreisfreie Stadt Berlin,,,,[object Object]
80389314,Bahngebäude PO98,2024-05-20T05:49:00+02:00,https://cmsphoto.ww-cdn.com/superstatic/3749680/art/grande/80389314-58033459.jpg?v=1716176946,52.4394625,13.2835469,C7QM+QCM Berlin Kreisfreie Stadt Berlin,,,,[object Object]
81521672,Reste Militärbahnhof C7RR,2024-07-12T18:39:00+02:00,https://cmsphoto.ww-cdn.com/superstatic/3749680/art/grande/81521672-58711109.jpg?v=1720802199,52.4421375,13.2913281,C7RR+VG4 Berlin Kreisfreie Stadt Berlin,,,,[object Object]
81694218,Bahnhof  2WH6,2024-07-22T07:37:00+02:00,https://cmsphoto.ww-cdn.com/superstatic/3749680/art/grande/81694218-58798515.jpg?v=1721626622,53.8872875,14.0588906,V3P5+WH6 Dargen Landkreis Vorpommern-Greifswald,,,https://www.eisenbahn-mv.de/bhf/d/bhf111.html,[object Object]
79368806,Alte Lok C529,2024-07-03T18:12:00+02:00,https://cmsphoto.ww-cdn.com/superstatic/3749680/art/grande/79368806-57493117.jpg?v=1712504553,51.4004625,7.1696719,C529+5VM Hattingen Ennepe-Ruhr-Kreis,,,,[object Object]
79955452,Bahn Haus G9C1,2024-07-29T17:15:00+02:00,https://cmsphoto.ww-cdn.com/superstatic/3749680/art/grande/79955452-57805573.jpg?v=1714635356,51.5207375,7.3694531,G9C9+7QW DO Arnsberg,,,,[object Object]
80039572,Bahnhaus P292,2024-05-05T19:03:00+02:00,https://cmsphoto.ww-cdn.com/superstatic/3749680/art/grande/80039572-57846480.jpg?v=1714928588,51.7192125,7.0117969,P296+MPM Dorsten Recklinghausen,,,,[object Object]
80081499,Bahngebäude CQC2,2024-05-07T11:06:00+02:00,https://cmsphoto.ww-cdn.com/superstatic/3749680/art/grande/80081499-57869148.jpg?v=1715072777,51.4200625,6.7735156,CQCF+2CC DU Duisburg,,,,[object Object]
80231858,Züge 6Q23,2024-05-13T15:06:00+02:00,https://cmsphoto.ww-cdn.com/superstatic/3749680/art/grande/80231858-57948254.jpg?v=1715605584,51.2003375,9.7744531,6Q2F+4QP Hessisch Lichtenau Werra-Meißner-Kreis,,,,[object Object]
80332397,Halle FXF2,2024-05-17T12:08:00+02:00,https://cmsphoto.ww-cdn.com/superstatic/3749680/art/grande/80332397-58009497.jpg?v=1715940528,51.4742375,11.9923281,FXFR+MWW Halle (Saale) Saalekreis,,,,[object Object]
80351058,Brikettfabrik Louise HCM9,2024-05-18T06:09:00+02:00,https://cmsphoto.ww-cdn.com/superstatic/3749680/art/grande/80351058-58018821.jpg?v=1716005303,51.5826875,13.4175469,HCM9+32F Uebigau-Wahrenbrück Elbe-Elster,,,,[object Object]
80361181,Stillgelegte Gleise 7MC3,2024-05-18T19:35:00+02:00,https://cmsphoto.ww-cdn.com/superstatic/3749680/art/grande/80361181-58022793.jpg?v=1716053733,51.2706875,11.6543281,7MC3+7PG Karsdorf BLK,,,,[object Object]
80381077,Bahnbetriebswerk Erfurt 55,2024-05-19T20:18:00+02:00,https://cmsphoto.ww-cdn.com/superstatic/3749680/art/grande/80381077-58029098.jpg?v=1716142655,50.9716375,11.0329844,X2CM+M55 EF Kreisfreie Stadt Erfurt,,,https://dewiki.de/Lexikon/Bahnbetriebswerk_Erfurt?fbclid=IwZXh0bgNhZW0CMTAAAR00VKiAiheIdlyiiPwUH9LwRzSoC-Qas5lMB_v4ue2HgD6NETD21HL7Lao_aem_AXwuqtfmF6b7gfOPNSOhKG9w9nmDm7o-Go2wOHjmV2rB1yoVb9-DXpBPY65mhgB8iLcvaHY9Crffgaj-034uMxcS,[object Object]
80384718,Bahngebäude 8777,2024-05-19T23:43:00+02:00,https://cmsphoto.ww-cdn.com/superstatic/3749680/art/grande/80384718-58030839.jpg?v=1716155035,51.2065625,11.9752344,6X4G+J3H Weißenfels BLK,,,,[object Object]
80387309,Stellwerk 1L97,2024-05-20T02:19:00+02:00,https://cmsphoto.ww-cdn.com/superstatic/3749680/art/grande/80387309-58031936.jpg?v=1716164362,51.6843125,13.2362969,M6MP+PGF Herzberg (Elster) Elbe-Elster,,,,[object Object]
80387345,Bahnhof FP54,2024-05-20T02:23:00+02:00,https://cmsphoto.ww-cdn.com/superstatic/3749680/art/grande/80387345-58031970.jpg?v=1716164616,51.7957125,13.5236406,QGWF+7FJ Heideblick Landkreis Dahme-Spreewald,,,,[object Object]
80387790,Bahnhof 4788,2024-05-20T03:09:00+02:00,https://cmsphoto.ww-cdn.com/superstatic/3749680/art/grande/80387790-58032230.jpg?v=1716167348,51.7436875,13.7761719,PQVG+FFF Crinitz Elbe-Elster,,,,[object Object]
80388212,Bahngebäude RE45,2024-05-20T03:47:00+02:00,https://cmsphoto.ww-cdn.com/superstatic/3749680/art/grande/80388212-58032507.jpg?v=1716169623,51.8411875,13.9565469,RXR4+FJF Lübbenau/Spreewald Oberspreewald-Lausitz,,,,[object Object]
80388824,Bahn GH89,2024-05-20T04:57:00+02:00,https://cmsphoto.ww-cdn.com/superstatic/3749680/art/grande/80388824-58032959.jpg?v=1716173822,52.2592625,13.5507656,7H52+P82 Mittenwalde Landkreis Dahme-Spreewald,,,,[object Object]
80468208,Lok 467,2024-05-23T12:34:00+02:00,https://cmsphoto.ww-cdn.com/superstatic/3749680/art/grande/80468208-58077487.jpg?v=1716460489,50.8168625,9.8497969,RR8X+PWV Schenklengsfeld Hersfeld-Rotenburg,,,,[object Object]
80468288,Kanonenbahnbrücke 78,2024-05-23T12:40:00+02:00,https://cmsphoto.ww-cdn.com/superstatic/3749680/art/grande/80468288-58077561.jpg?v=1716460826,51.0109375,9.4603125,2F66+94 Knüllwald Schwalm-Eder-Kreis,,,,[object Object]
80469153,Bahnverladung für Schüttgut 47,2024-05-23T13:22:00+02:00,https://cmsphoto.ww-cdn.com/superstatic/3749680/art/grande/80469153-58078200.jpg?v=1716463344,51.3316625,8.4875156,8FJQ+M26 Olsberg Hochsauerlandkreis,,,,[object Object]
80469168,Waggon 587,2024-05-23T14:34:00+02:00,https://cmsphoto.ww-cdn.com/superstatic/3749680/art/grande/80469168-58078235.jpg?v=1716463463,51.3501875,8.5759531,9H2G+39G Brilon Hochsauerlandkreis,,,,[object Object]
80480061,Tunnel/U-Verlagerung 88XG,2024-05-23T21:13:00+02:00,https://cmsphoto.ww-cdn.com/superstatic/3749680/art/grande/80480061-58085601.jpg?v=1716491624,51.3477875,7.3256094,88XG+469 Gevelsberg Ennepe-Ruhr-Kreis,,,,[object Object]
80480081,Tunnel/U-Verlagerung 984F,2024-05-23T21:15:00+02:00,https://cmsphoto.ww-cdn.com/superstatic/3749680/art/grande/80480081-58085625.jpg?v=1716491723,51.3551375,7.3237031,984F+3F4 Gevelsberg Ennepe-Ruhr-Kreis,,,,[object Object]
80696403,Stellwerk MVR,2024-06-02T15:51:00+02:00,https://cmsphoto.ww-cdn.com/superstatic/3749680/art/grande/80696403-58204636.jpg?v=1717336287,50.8267375,10.0271406,R2GG+MVR Vacha WAK,,,,[object Object]
81054555,Industrie/ DB AG 3PFW,2024-06-18T10:39:00+02:00,https://cmsphoto.ww-cdn.com/superstatic/3749680/art/grande/81054555-58439086.jpg?v=1718699942,52.3543625,14.4787031,9F3H+PFW Frankfurt (Oder) Frankfurt,,,,[object Object]
81878379,Bahngebäude H6XC,2024-07-30T17:07:00+02:00,https://cmsphoto.ww-cdn.com/superstatic/3749680/art/grande/81878379-58892234.jpg?v=1722351978,51.5986375,7.2207656,H6XC+F82 Recklinghausen Recklinghausen,,,,[object Object]
79513555,Lockschuppen Hof 8W68,2024-04-14T23:13:00+02:00,https://cmsphoto.ww-cdn.com/superstatic/3749680/art/grande/79513555-57570848.jpg?v=1713129217,50.3103375,11.9167344,8W68+4MQ Hof Hof,,,,[object Object]
79813718,Ringlokschuppen 83MW,2024-04-26T11:02:00+02:00,https://cmsphoto.ww-cdn.com/superstatic/3749680/art/grande/79813718-57735720.jpg?v=1714122151,50.7152375,12.4692031,PF89+3MW Zwickau Zwickau,,,,[object Object]
79909192,Ringlokschuppen HZ99,2024-04-30T14:46:00+02:00,https://cmsphoto.ww-cdn.com/superstatic/3749680/art/grande/79909192-57783234.jpg?v=1714481198,50.5692375,8.6536094,HM93+MCX Gießen Landkreis Gießen,,,,[object Object]
80082345,Turm CMP1,2024-05-07T11:44:00+02:00,https://cmsphoto.ww-cdn.com/superstatic/3749680/art/grande/80082345-57869865.jpg?v=1715075085,51.4370875,6.6547344,CMP3+RVQ MO Wesel,,,,[object Object]
80108283,Bahn 52GH,2024-05-08T10:11:00+02:00,https://cmsphoto.ww-cdn.com/superstatic/3749680/art/grande/80108283-57883208.jpg?v=1715155862,51.2050625,6.7013594,6P42+2GH Neuss Rhein-Kreis Neuss,,,,[object Object]
80161696,Bahnhof 8JP2,2024-05-10T10:12:00+02:00,https://cmsphoto.ww-cdn.com/superstatic/3749680/art/grande/80161696-57913875.jpg?v=1715328772,51.3366125,6.6297969,8JPH+JWV Kreis Düsseldorf,,,,[object Object]
80351108,Güterbahnhof JPQ7,2024-05-18T06:14:00+02:00,https://cmsphoto.ww-cdn.com/superstatic/3749680/art/grande/80351108-58018859.jpg?v=1716005666,51.6379375,13.7145469,JPQ7+5RF Finsterwalde Elbe-Elster,,,,[object Object]
80381811,Ringlokschuppen 9654,2024-05-19T21:04:00+02:00,https://cmsphoto.ww-cdn.com/superstatic/3749680/art/grande/80381811-58029465.jpg?v=1716145444,50.7250375,12.3656094,P9G8+269 Werdau Zwickau,,,,[object Object]
80383132,Bahngebäude 8978,2024-05-19T22:12:00+02:00,https://cmsphoto.ww-cdn.com/superstatic/3749680/art/grande/80383132-58030099.jpg?v=1716149493,50.9524875,12.5982344,XH2X+X7X Langenleuba-Niederhain ABG,,,,[object Object]
80383606,Bahnhof 8999,2024-05-19T22:46:00+02:00,https://cmsphoto.ww-cdn.com/superstatic/3749680/art/grande/80383606-58030378.jpg?v=1716151579,51.0398125,12.2932656,27QV+W8C Meuselwitz ABG,,,,[object Object]
80385941,Bahnhof TT56,2024-05-20T00:56:00+02:00,https://cmsphoto.ww-cdn.com/superstatic/3749680/art/grande/80385941-58031229.jpg?v=1716159396,51.1929125,13.3078906,58V5+556 Lommatzsch MEI,,,,[object Object]
80386371,Ehemaliges Bahnwärterhaus 5444,2024-05-20T01:21:00+02:00,https://cmsphoto.ww-cdn.com/superstatic/3749680/art/grande/80386371-58031403.jpg?v=1716160874,51.3124125,13.5199844,8G69+XX9 Großenhain MEI,,,,[object Object]
80386450,Bahnhof G8I9,2024-05-20T01:27:00+02:00,https://cmsphoto.ww-cdn.com/superstatic/3749680/art/grande/80386450-58031442.jpg?v=1716161244,51.3290125,13.9524844,8XH2+JX5 Schwepnitz BZ,,,,[object Object]
80386684,Bahnhof DR56,2024-05-20T01:43:00+02:00,https://cmsphoto.ww-cdn.com/superstatic/3749680/art/grande/80386684-58031562.jpg?v=1716162226,51.4971375,13.8090156,FRW5+VJ2 Lauchhammer Oberspreewald-Lausitz,,,,[object Object]
80387737,Bahn 67Z8,2024-05-20T03:06:00+02:00,https://cmsphoto.ww-cdn.com/superstatic/3749680/art/grande/80387737-58032208.jpg?v=1716167192,51.7375125,13.9789844,PXQH+2H5 Calau Oberspreewald-Lausitz,,,,[object Object]
80387912,Bahnhof HU98,2024-05-20T03:20:00+02:00,https://cmsphoto.ww-cdn.com/superstatic/3749680/art/grande/80387912-58032343.jpg?v=1716168002,51.7208125,14.3474219,P8CW+8XF CB Spree-Neiße,,,,[object Object]
80387940,Cottbus Deckungsbefestigung Eisenbahnstrecke 96,2024-05-20T03:23:00+02:00,https://cmsphoto.ww-cdn.com/superstatic/3749680/art/grande/80387940-58032353.jpg?v=1716168189,51.7323125,14.3549375,P9J3+WX CB Spree-Neiße,,,,[object Object]
80388188,Bahn GG76,2024-05-20T03:45:00+02:00,https://cmsphoto.ww-cdn.com/superstatic/3749680/art/grande/80388188-58032490.jpg?v=1716169500,51.8146625,14.4336094,RC7M+VC9 Teichland Spree-Neiße,,,,[object Object]
80468735,Bahngebäude 45M3,2024-05-23T12:54:00+02:00,https://cmsphoto.ww-cdn.com/superstatic/3749680/art/grande/80468735-58077765.jpg?v=1716461663,51.1347125,6.1507344,45M2+V7Q Wassenberg HS,,,,[object Object]
80470501,Alter Bahnhof Gladenbach 587,2024-05-23T14:16:00+02:00,https://cmsphoto.ww-cdn.com/superstatic/3749680/art/grande/80470501-58079181.jpg?v=1716466490,50.7568125,8.5829375,QH4M+P5 Gladenbach Marburg-Biedenkopf,,,,[object Object]
80470639,Bahngebäude 27P3,2024-05-23T14:21:00+02:00,https://cmsphoto.ww-cdn.com/superstatic/3749680/art/grande/80470639-58079306.jpg?v=1716466861,51.0363375,6.2812656,27PJ+GGJ Hückelhoven HS,,,,[object Object]
80476784,Eisenbahnbrücke C99,2024-05-23T18:40:00+02:00,https://cmsphoto.ww-cdn.com/superstatic/3749680/art/grande/80476784-58083823.jpg?v=1716482403,50.4184625,8.3938906,C99V+9HJ Weilmünster Limburg-Weilburg,,,,[object Object]
80493576,Bahngebäude 569,2024-05-24T12:43:00+02:00,https://cmsphoto.ww-cdn.com/superstatic/3749680/art/grande/80493576-58093433.jpg?v=1716547429,50.8034375,6.4269375,RC3G+9Q Düren DN,,,,[object Object]
80493613,Alte Eisenbahnbrücke 21,2024-05-24T12:48:00+02:00,https://cmsphoto.ww-cdn.com/superstatic/3749680/art/grande/80493613-58093475.jpg?v=1716547689,50.8128125,6.4593125,RF75+4P Düren DN,,,,[object Object]
80652181,Eisenbahnbrücke HX68,2024-05-31T08:08:00+02:00,https://cmsphoto.ww-cdn.com/superstatic/3749680/art/grande/80652181-58182011.jpg?v=1717135724,50.5620625,7.9671875,HX68+RV Westerburg Westerwaldkreis,,,,[object Object]
79214275,Malbergbahn,2024-07-29T19:08:00+02:00,https://cmsphoto.ww-cdn.com/superstatic/3749680/art/grande/79214275-57401974.jpg?v=1711736285,50.3264625,7.7146406,8PG7+HVJ Bad Ems Rhein-Lahn-Kreis,,,https://de.wikipedia.org/wiki/Malbergbahn,[object Object]
79402315,Altes Stellwerk 98RR,2024-07-02T18:03:00+02:00,https://cmsphoto.ww-cdn.com/superstatic/3749680/art/grande/79402315-57511888.jpg?v=1712647816,50.3921625,7.3415156,98RR+VJ6 Kruft Mayen-Koblenz,,,,[object Object]
80477565,alter Eisenbahntunnel ( Bettingbergtunnel Westportal) QGGW,2024-05-23T19:08:00+02:00,https://cmsphoto.ww-cdn.com/superstatic/3749680/art/grande/80477565-58084192.jpg?v=1716484097,49.7770625,9.5469219,QGGW+RQF Kreuzwertheim Main-Spessart,,,,[object Object]
80489274,Bahnhof HT67,2024-05-24T09:03:00+02:00,https://cmsphoto.ww-cdn.com/superstatic/3749680/art/grande/80489274-58089846.jpg?v=1716534205,50.2244625,7.4042344,6CF3+QMQ Hatzenport Mayen-Koblenz,,,,[object Object]
80490275,Tunnel 7855,2024-05-24T10:07:00+02:00,https://cmsphoto.ww-cdn.com/superstatic/3749680/art/grande/80490275-58090463.jpg?v=1716538063,50.4317125,6.8521406,CVJ2+MVJ Wershofen Landkreis Ahrweiler,,,,[object Object]
80490431,Alter Grenzbahnhof 569,2024-05-24T10:19:00+02:00,https://cmsphoto.ww-cdn.com/superstatic/3749680/art/grande/80490431-58090617.jpg?v=1716538703,50.7030375,6.1774844,P53G+6X9 AC AC,,,,[object Object]
80490583,Altes Stellwerk 5512,2024-05-24T10:31:00+02:00,https://cmsphoto.ww-cdn.com/superstatic/3749680/art/grande/80490583-58090818.jpg?v=1716539457,50.7893125,6.0554375,Q3Q4+P5 AC AC,,,,[object Object]
80490835,Brücke aus Cloud Atlas  VXPP,2024-05-24T10:48:00+02:00,https://cmsphoto.ww-cdn.com/superstatic/3749680/art/grande/80490835-58091026.jpg?v=1716540405,50.8857125,13.9854219,VXPP+75M Bad Gottleuba-Berggießhübel Sächsische Schweiz-Osterzgebirge,,,,[object Object]
80491643,Stellwerk 6987,2024-05-24T11:15:00+02:00,https://cmsphoto.ww-cdn.com/superstatic/3749680/art/grande/80491643-58091646.jpg?v=1716542100,50.8663375,6.1854219,V58P+G5M Alsdorf AC,,,,[object Object]
80493480,Brücke 9H43,2024-05-24T12:28:00+02:00,https://cmsphoto.ww-cdn.com/superstatic/3749680/art/grande/80493480-58093256.jpg?v=1716546476,49.3556375,9.5778281,9H4H+744 Schöntal Hohenlohekreis,,,,[object Object]
80536301,Lockschuppen 73J5,2024-05-26T16:25:00+02:00,https://cmsphoto.ww-cdn.com/superstatic/3749680/art/grande/80536301-58112241.jpg?v=1716733522,50.5026375,6.9766094,GX3G+3J5 Altenahr Landkreis Ahrweiler,,,,[object Object]
80579564,Zug/Bahnhof M484,2024-07-28T18:28:00+02:00,https://cmsphoto.ww-cdn.com/superstatic/3749680/art/grande/80579564-58140379.jpg?v=1716883763,50.6665125,6.1321719,M48J+JV3 Raeren LG,,,,[object Object]
80582303,Güterbahnhof PXC2,2024-05-28T12:02:00+02:00,https://cmsphoto.ww-cdn.com/superstatic/3749680/art/grande/80582303-58143125.jpg?v=1716890493,50.7201125,5.9565156,PXC4+2JR Bleyberg LG,,,,[object Object]
80583284,Züge GM41,2024-05-28T12:41:00+02:00,https://cmsphoto.ww-cdn.com/superstatic/3749680/art/grande/80583284-58143733.jpg?v=1716892882,50.5051375,5.6792344,GM4H+3M5 Sprimont LG,,,,[object Object]
80610069,Bahnhof JH53,2024-05-29T11:52:00+02:00,https://cmsphoto.ww-cdn.com/superstatic/3749680/art/grande/80610069-58158882.jpg?v=1716976317,50.6079375,5.5736406,JH5F+5FC Lüttich LG,,,,[object Object]
80610087,Stellwerk JH53,2024-05-29T12:03:00+02:00,https://cmsphoto.ww-cdn.com/superstatic/3749680/art/grande/80610087-58158916.jpg?v=1716976420,50.6093875,5.5752031,JH5G+Q34 Lüttich LG,,,,[object Object]
80652291,Stellwerk 9Q47,2024-05-31T08:20:00+02:00,https://cmsphoto.ww-cdn.com/superstatic/3749680/art/grande/80652291-58182102.jpg?v=1717136450,50.3269125,7.7302969,8PGJ+Q47 Bad Ems Rhein-Lahn-Kreis,,,,[object Object]
80682054,Stellwerk 7JW4,2024-06-01T19:28:00+02:00,https://cmsphoto.ww-cdn.com/superstatic/3749680/art/grande/80682054-58199294.jpg?v=1717262878,50.2973125,7.6071719,7JW4+WVF Lahnstein Rhein-Lahn-Kreis,,,,[object Object]
80717705,Bahngebäude 2PX3,2024-06-03T15:59:00+02:00,https://cmsphoto.ww-cdn.com/superstatic/3749680/art/grande/80717705-58215988.jpg?v=1717423174,50.0478125,9.7041094,2PX3+4JH Gemünden am Main Main-Spessart,,,,[object Object]
80788547,Eisenbahnbrücke VJH5,2024-06-06T14:30:00+02:00,https://cmsphoto.ww-cdn.com/superstatic/3749680/art/grande/80788547-58261916.jpg?v=1717677041,50.8786875,5.6143281,VJH7+FPG Lanaken LI,,,,[object Object]
81267597,Alter Bahnhof 7JMQ,2024-06-29T18:49:00+02:00,https://cmsphoto.ww-cdn.com/superstatic/3749680/art/grande/81267597-58567770.jpg?v=1719679744,50.2828125,6.6381406,7JMQ+47C Hillesheim Vulkaneifel,,,,[object Object]
81267650,Eisenbahnbrücke 7JPQ,2024-06-29T18:55:00+02:00,https://cmsphoto.ww-cdn.com/superstatic/3749680/art/grande/81267650-58567798.jpg?v=1719680128,50.2854875,6.6380469,7JPQ+56V Hillesheim Vulkaneifel,,,,[object Object]
81622490,Jünkerath Bahnhof V237,2024-07-18T09:44:00+02:00,https://cmsphoto.ww-cdn.com/superstatic/3749680/art/grande/81622490-58763591.jpg?v=1721287606,50.3446875,6.5806875,8HVJ+V7 Jünkerath Vulkaneifel,,,,[object Object]
81626799,Bahnhof 6M7P,2024-07-18T14:52:00+02:00,https://cmsphoto.ww-cdn.com/superstatic/3749680/art/grande/81626799-58766687.jpg?v=1721307091,49.4167125,9.2782031,C78H+M7P Schefflenz Neckar-Odenwald-Kreis,,,,[object Object]
79308385,DB Gebäude,2024-04-04T06:53:00+02:00,https://cmsphoto.ww-cdn.com/superstatic/3749680/art/grande/79308385-57456997.jpg?v=1712206491,47.9583375,9.6467031,XJ5W+8MP Aulendorf RV,,,,[object Object]
79683390,Bahnhof Pfettrach 8VC2,2024-04-21T16:21:00+02:00,https://cmsphoto.ww-cdn.com/superstatic/3749680/art/grande/79683390-57664875.jpg?v=1713709268,48.5746375,12.0660156,H3F8+VC2 Altdorf Landshut,,,,[object Object]
79683567,Halle 72V9,2024-04-21T16:31:00+02:00,https://cmsphoto.ww-cdn.com/superstatic/3749680/art/grande/79683567-57664907.jpg?v=1713709858,48.8075375,12.9772344,RX5G+2V9 Deggendorf DEG,,,,[object Object]
80470902,Alte Waggons 5987,2024-07-10T17:08:00+02:00,https://cmsphoto.ww-cdn.com/superstatic/3749680/art/grande/80470902-58079590.jpg?v=1716467625,48.8727875,9.1799844,V5FH+4X9 Kornwestheim LB,,,,[object Object]
80478406,ehemaliger Haltepunkt Wildpark Q45G,2024-05-23T19:40:00+02:00,https://cmsphoto.ww-cdn.com/superstatic/3749680/art/grande/80478406-58084628.jpg?v=1716486000,48.7581125,9.1251094,Q45G+62X Stuttgart Stuttgart,,,,[object Object]
80606466,R7VF+JQX,2024-05-29T08:59:00+02:00,https://cmsphoto.ww-cdn.com/superstatic/3749680/art/grande/80606466-58155961.jpg?v=1716965952,49.8441125,5.2744844,R7VF+JQX Bertrix LX,,,,[object Object]
80653525,Güterbahnhof 99V2,2024-05-31T10:27:00+02:00,https://cmsphoto.ww-cdn.com/superstatic/3749680/art/grande/80653525-58183200.jpg?v=1717144029,50.3946875,4.3857344,99VP+V7H Charleroi HT,,,,[object Object]
80654524,Züge FC23,2024-05-31T11:26:00+02:00,https://cmsphoto.ww-cdn.com/superstatic/3749680/art/grande/80654524-58184190.jpg?v=1717147599,50.4505125,4.4409531,FC2R+694 Charleroi HT,,,,[object Object]
80710483,Les Forges d'Abel (gare) station 78C6,2024-06-03T08:41:00+02:00,https://cmsphoto.ww-cdn.com/superstatic/3749680/art/grande/80710483-58210114.jpg?v=1717396879,42.8210625,-0.5619375,RCCQ+C6 Borce Département Pyrénées-Atlantiques,,,,[object Object]
80991828,Bahngebäude PR9R,2024-06-15T15:36:00+02:00,https://cmsphoto.ww-cdn.com/superstatic/3749680/art/grande/80991828-58385737.jpg?v=1718458592,50.7197875,3.8402344,PR9R+W39 Lessines HT,,,,[object Object]
81001971,Bahn 2PW4,2024-06-16T02:26:00+02:00,https://cmsphoto.ww-cdn.com/superstatic/3749680/art/grande/81001971-58391646.jpg?v=1718497587,45.0461125,5.7066719,2PW4+CMV Saint-Georges-de-Commiers Isère,,,,[object Object]
81003665,Bahn 7PJ2,2024-06-16T06:00:00+02:00,https://cmsphoto.ww-cdn.com/superstatic/3749680/art/grande/81003665-58392392.jpg?v=1718510417,49.2815375,5.7010781,7PJ2+JC8 Dommary-Baroncourt Département Meuse,,,,[object Object]
81003812,Tunnel de Tavannes 5FJ3,2024-06-16T06:21:00+02:00,https://cmsphoto.ww-cdn.com/superstatic/3749680/art/grande/81003812-58392438.jpg?v=1718511652,49.1804625,5.4527656,5FJ3+54J Fleury-devant-Douaumont Département Meuse,,,,[object Object]
81354449,Bahnhäuschen Kolejowa RX6P,2024-07-04T10:26:00+02:00,https://cmsphoto.ww-cdn.com/superstatic/3749680/art/grande/81354449-58613311.jpg?v=1720081602,53.8116875,20.9860625,RX6P+MC Rudziska Olsztynski,,,,[object Object]
81361424,Zug Gebäude 33MW,2024-07-04T15:30:00+02:00,https://cmsphoto.ww-cdn.com/superstatic/3749680/art/grande/81361424-58618413.jpg?v=1720099788,53.0832375,18.0974844,33MW+7XX Bydgoszcz Powiat Bydgoski,,,,[object Object]
81394645,Lokschuppen und Züge  2XHP,2024-07-06T10:42:00+02:00,https://cmsphoto.ww-cdn.com/superstatic/3749680/art/grande/81394645-58636317.jpg?v=1720255328,50.0278125,19.9865625,2XHP+4J Krakau Kraków,,,,[object Object]
81395298,Bahngebäude 8QV9,2024-07-06T11:55:00+02:00,https://cmsphoto.ww-cdn.com/superstatic/3749680/art/grande/81395298-58636647.jpg?v=1720259748,50.3445625,18.7689375,8QV9+RH Zabrze Zabrze,,,,[object Object]
81395302,Ringlockschuppen mit Zügen 9JP7,2024-07-06T11:57:00+02:00,https://cmsphoto.ww-cdn.com/superstatic/3749680/art/grande/81395302-58636655.jpg?v=1720259860,50.3871875,18.6133125,9JP7+V8 Pyskowice Gliwice County,,,,[object Object]
81882598,Panzerzug XW8,2024-07-30T20:45:00+02:00,https://cmsphoto.ww-cdn.com/superstatic/3749680/art/grande/81882598-58894209.jpg?v=1722365128,43.5224125,16.4598281,GFC5+XW8 Split Grad Split,,,,[object Object]
